,Station,Latitude,Longitude
0,Abbey Road,51.5319519867171,0.00372337109717115
1,Abbey Wood,51.490784095703106,0.120271969782359
2,Acton Central,51.5087577801896,-0.263430199363473
3,Acton Main Line,51.5168869310483,-0.267689952184077
4,Acton Town,51.503071442963495,-0.28030270140601
5,Addington Village,51.356238590430095,-0.032665100391443
6,Addiscombe,51.379808289594095,-0.0732132828267587
7,Albany Park,51.435815606227706,0.126444637772442
8,Aldgate,51.5143423787415,-0.0756269126501567
9,Aldgate East,51.5150816226404,-0.0730014627258136
10,Alexandra Palace,51.59826282264971,-0.12014897219453599
11,All Saints,51.5104769244406,-0.0126248853684833
12,Alperton,51.5412092743614,-0.299515758699207
13,Amersham,51.6741293179421,-0.6065137893557739
14,Ampere Way,51.382299420009005,-0.123636799345144
15,Anerley,51.412516717902406,-0.0651371001212532
16,Angel,51.53296801568911,-0.10558144894639801
17,Angel Road,51.61242031959001,-0.0487329193735463
18,Archway,51.5654905340774,-0.135121576677549
19,Arena,51.391522751976794,-0.0583185500805117
20,Arnos Grove,51.616230141680205,-0.134270218764562
21,Arsenal,51.5585413757193,-0.105499933602789
22,Avenue Road,51.40679798274421,-0.0494469371121275
23,Baker Street,51.5231296204391,-0.15690419441262
24,Balham,51.443182562032604,-0.152685163343656
25,Bank,51.513347062296,-0.0890001239496697
26,Banstead,51.3292931229522,-0.213132336180543
27,Barbican,51.5202152835411,-0.0977215786403087
28,Barking,51.539521113341294,0.0808316100128655
29,Barkingside,51.5858506139378,0.0884766396392107
30,Barnehurst,51.4647802868859,0.160948022415047
31,Barnes,51.4671277727085,-0.242033062031602
32,Barnes Bridge,51.472228052683704,-0.25236261703581697
33,Barons Court,51.4902286819759,-0.213430145064537
34,Battersea Park,51.477318323121004,-0.14812376166319502
35,Bayswater,51.5121112883667,-0.18790157392744103
36,Beckenham Hill,51.424626057957,-0.0164957619832815
37,Beckenham Junction,51.410941641376105,-0.0257017391507886
38,Beckenham Road,51.4095297483599,-0.043391922075085
39,Beckton,51.51437662955401,0.0615252969323279
40,Beckton Park,51.50890079371221,0.0548219388642393
41,Becontree,51.5395854092624,0.12688029173904
42,Beddington Lane,51.3892398819207,-0.142138434359917
43,Belgrave Walk,51.40096164639049,-0.17849647405351798
44,Bellingham,51.4338648934564,-0.0204117703162584
45,Belmont,51.34411992456489,-0.19948925318398603
46,Belsize Park,51.5501908776835,-0.163974492584094
47,Belvedere,51.491959003102,0.15203379192465197
48,Bermondsey,51.4979607802573,-0.0643300900477039
49,Berrylands,51.398768406045896,-0.28032147745849295
50,Bethnal Green,51.527191741204994,-0.0553921116245381
51,Bethnal Green Rail,51.5242827393666,-0.0600137426043104
52,Bexley,51.4408145305372,0.148203912973033
53,Bexleyheath,51.4635499575874,0.13336296501856
54,Bickley,51.4003795691873,0.0443040315807173
55,Birkbeck,51.4038630943054,-0.0562862357203351
56,Blackfriars,51.5115869277802,-0.10299538523578698
57,Blackheath,51.4654080109124,0.008336594707660391
58,Blackhorse Lane,51.3847461833949,-0.0705339478990595
59,Blackhorse Road,51.5857766270677,-0.0396257115532134
60,Blackwall,51.5078315405334,-0.007235165880044379
61,Bond Street,51.51379752478379,-0.14961360982794597
62,Borough,51.50104886940699,-0.0941973231491299
63,Boston Manor,51.4957655352965,-0.32474718876578806
64,Bounds Green,51.607031921240704,-0.124177065625754
65,Bow Church,51.527615203652,-0.0204998991998037
66,Bow Road,51.5270418067574,-0.0243595906651091
67,Bowes Park,51.6072495146955,-0.119792219172905
68,Brent Cross,51.576599215060604,-0.21333584051056304
69,Brentford,51.48753630712871,-0.30962253669470297
70,Brentwood,51.6136103366992,0.29967281617211794
71,Brimsdown,51.655244614441,-0.0310922769446394
72,Brixton,51.4627368020741,-0.11455209758661801
73,Brockley,51.4647496625814,-0.0377482505476242
74,Bromley North,51.4089423111557,0.0172354519396871
75,Bromley South,51.400001288709,0.017359580478029
76,Bromley-by-Bow,51.524840200182105,-0.0116823743599265
77,Brondesbury,51.5452623623785,-0.20283848573229102
78,Brondesbury Park,51.540325365754605,-0.21047394668161298
79,Broxbourne,51.74701556808889,-0.0110240837883153
80,Bruce Grove,51.5940112462336,-0.0703989896457386
81,Buckhurst Hill,51.626576660928,0.0467125412965725
82,Burnt Oak,51.6025519118101,-0.264330712266273
83,Bush Hill Park,51.6414819592655,-0.0692804125005405
84,Bushey,51.6455441595026,-0.384721541354714
85,Caledonian Road,51.547885441027496,-0.118360861873635
86,Caledonian Road and Barnsbury,51.5432845754194,-0.11520485671489998
87,Cambridge Heath,51.5320597642081,-0.0572032008235444
88,Camden Road,51.541851234203605,-0.13920311252229198
89,Camden Town,51.539969352277005,-0.142452381051009
90,Canada Water,51.4981684118441,-0.0508071209954049
91,Canary Wharf,51.5035784043688,-0.0194668401596637
92,Canning Town,51.513870287242,0.00830563274393741
93,Cannon Street,51.5113620889071,-0.0902505268833338
94,Canonbury,51.548188385177,-0.0925741958211209
95,Canons Park,51.60765056954779,-0.29439159654004604
96,Carpenders Park,51.628186717588605,-0.385829323805549
97,Carshalton,51.368426365724,-0.16639832800089802
98,Carshalton Beeches,51.3573868407117,-0.169496326135296
99,Castle Bar Park,51.5229736652832,-0.331504076340438
100,Caterham,51.28216282260679,-0.0786072985674413
101,Catford,51.4442649120205,-0.0265384985954206
102,Catford Bridge,51.4446946250561,-0.0248218759437963
103,Centrale,51.375767467771595,-0.103888103843675
104,Chadwell Heath,51.5680468782263,0.128901111583164
105,Chafford Hundred,51.4855544959176,0.28747570068245
106,Chalfont and Latimer,51.66790747919949,-0.56106777731917
107,Chalk Farm,51.5441490864876,-0.153733070875137
108,Chancery Lane,51.518494016584704,-0.11196202748568902
109,Charing Cross,51.5083586300048,-0.124802938133095
110,Charlton,51.4868349882394,0.0309416448024295
111,Cheam,51.3554602429281,-0.214211283594169
112,Chelsfield,51.35626458259149,0.10898411971124199
113,Chesham,51.705380020677296,-0.6114296571259019
114,Cheshunt,51.7028733147507,-0.0238874154607898
115,Chessington North,51.3642434424783,-0.30047612885525105
116,Chessington South,51.3567045306375,-0.307089020685885
117,Chigwell,51.6178578723834,0.0761792150052964
118,Chingford,51.633253373648,0.00951432552467428
119,Chipstead,51.30927498217871,-0.169445869499599
120,Chislehurst,51.4055984084067,0.0574918214487956
121,Chiswick,51.4807814945228,-0.267013321856982
122,Chiswick Park,51.4943707139869,-0.26773692216360995
123,Chorleywood,51.6542659264231,-0.518333926536853
124,Church Street,51.373706561892995,-0.10434682889571101
125,City Thameslink,51.5139350677627,-0.10361844917156099
126,Clapham Common,51.461803669852294,-0.13831490249485098
127,Clapham High Street,51.4654695136715,-0.132464502577436
128,Clapham Junction,51.4643667842754,-0.170315002226266
129,Clapham North,51.464916214992506,-0.12991006289038198
130,Clapham South,51.4526764891153,-0.147984069598376
131,Clapton,51.5615690879152,-0.0574894584530427
132,Clock House,51.4085405609855,-0.0407020925904992
133,Cockfosters,51.6520244788699,-0.149916711073587
134,Colindale,51.5952305160491,-0.250287543714841
135,Colliers Wood,51.41875918776179,-0.177415099875595
136,Coombe Lane,51.3597893094901,-0.0595315713236646
137,Coulsdon South,51.315800944170704,-0.137903090283073
138,Coulsdon Town,51.322452953247996,-0.134347057284217
139,Covent Garden,51.512760234858206,-0.12450689463272302
140,Crayford,51.448546757006,0.17850271627803999
141,Crews Hill,51.6844746109419,-0.10684410075744
142,Cricklewood,51.5584226684923,-0.21254793410145897
143,Crofton Park,51.4551792922913,-0.036546581839275
144,Crossharbour and London Arena,51.4958399792182,-0.0149328131018881
145,Crouch Hill,51.57132709751821,-0.11713328488972699
146,Croxley,51.647005280107,-0.44160379825288504
147,Crystal Palace,51.41817035156179,-0.0726072327605205
148,Custom House,51.5096220567499,0.0257725102639474
149,Cutty Sark for Maritime Greenwich,51.481944467916,-0.0105818667291609
150,Cyprus,51.50852658125,0.0638407558302055
151,Dagenham Dock,51.526287196845296,0.145031014043306
152,Dagenham East,51.5441873390151,0.165833431683368
153,Dagenham Heathway,51.541211790954705,0.14767972018313802
154,Dalston Junction,51.546093715652106,-0.0749942048209628
155,Dalston Kingsland,51.5486678182555,-0.0762269219509382
156,Debden,51.645492001721,0.0838014748371958
157,Denmark Hill,51.4682006393928,-0.0909878695789793
158,Deptford,51.47889008359321,-0.0261963195716051
159,Deptford Bridge,51.474476771881,-0.022052428800672996
160,Devons Road,51.5222584675869,-0.0180077541924364
161,Dollis Hill,51.551850590714395,-0.23879776168058803
162,Drayton Green,51.516004675342906,-0.32961125970796695
163,Drayton Park,51.553078306953495,-0.10577019974838901
164,Dundonald Road,51.41739814673021,-0.207527112702531
165,Ealing Broadway,51.514861974896405,-0.302010381444888
166,Ealing Common,51.5102486557265,-0.28715141790547805
167,Earls Court,51.4913566719448,-0.19431380928726502
168,Earlsfield,51.4422388073847,-0.187272688578691
169,East Acton,51.51626341426889,-0.24811222486180104
170,East Croydon,51.375716101925704,-0.0918634960219951
171,East Dulwich,51.4616255828228,-0.0804365715036241
172,East Finchley,51.5873325447116,-0.164743886020014
173,East Ham,51.5392461649047,0.0515162933203073
174,East India,51.5086840062894,-0.00237033154909731
175,East Putney,51.4588797835326,-0.210998234182405
176,Eastcote,51.576551823245,-0.39682329933106103
177,Eden Park,51.3907961029416,-0.0266697155532036
178,Edgware,51.6142296221626,-0.275093666466036
179,Edgware Road (Bakerloo),51.5206453612591,-0.17053955158627696
180,Edgware Road (Circle/District/Hammersmith and City),51.5199980431141,-0.16766825428113402
181,Edmonton Green,51.62511570259439,-0.0616390194516995
182,Elephant and Castle,51.495849382439204,-0.100738714840864
183,Elm Park,51.5491245841858,0.197252681986762
184,Elmers End,51.398291108624896,-0.0494638322785197
185,Elmstead Woods,51.4170806314648,0.0442293427243444
186,Elstree and Borehamwood,51.6528755760948,-0.27982861947405296
187,Eltham,51.455662220801294,0.052329307733168
188,Elverson Road,51.468372189945406,-0.016816376211146
189,Embankment,51.50731249477679,-0.12236733652715699
190,Emerson Park,51.569114908911295,0.220222934339532
191,Enfield Chase,51.6527221112153,-0.0907042054849836
192,Enfield Lock,51.6708461220463,-0.0283910701059887
193,Enfield Town,51.6519700723096,-0.0793299220890822
194,Epping,51.6936861661113,0.11382555274482599
195,Epsom Downs,51.3236594388377,-0.23897022678043106
196,Erith,51.4816476750127,0.174261289232435
197,Essex Road,51.5406333108504,-0.0963655258956236
198,Euston,51.52866433052879,-0.133296471846732
199,Euston Square,51.52866433052879,-0.133296471846732
200,Ewell East,51.345243876206204,-0.24150300137218803
201,Ewell West,51.3499911421544,-0.25708913304289
202,Fairlop,51.5961095431963,0.0905932794268205
203,Falconwood,51.459085796386205,0.0785096930122727
204,Farringdon,51.5201956882975,-0.10484306195035001
205,Feltham,51.44787917299129,-0.40982448095176505
206,Fenchurch Street,51.5115667058932,-0.0785541528077214
207,Fieldway,51.351317007255,-0.0245032653661046
208,Finchley Central,51.600903250521895,-0.193220636879031
209,Finchley Road,51.5470961986729,-0.180050560513333
210,Finchley Road and Frognal,51.550119498240996,-0.18365120265213697
211,Finsbury Park,51.5646354455769,-0.10588148617519001
212,Forest Gate,51.549316118809,0.0241890915067026
213,Forest Hill,51.43930831236939,-0.0533285044148391
214,Fulham Broadway,51.480260903539104,-0.19554416374798997
215,Fulwell,51.433942565399896,-0.349438524762415
216,Gallions Reach,51.5090341399984,0.0717753944216077
217,Gants Hill,51.5765529520727,0.0660840978012218
218,George Street,51.3739660568411,-0.0987181052186884
219,Gidea Park,51.58186574672871,0.20597698062300102
220,Gipsy Hill,51.424469522694,-0.0838351675167364
221,Gloucester Road,51.4944995577167,-0.18354355952647697
222,Golders Green,51.57221553323521,-0.194834559142163
223,Goldhawk Road,51.502076966571295,-0.227404006254784
224,Goodge Street,51.52061310945721,-0.13480769016588698
225,Goodmayes,51.56618098240521,0.11172965428727501
226,Gordon Hill,51.663502237466496,-0.0944732997864739
227,Gospel Oak,51.555405293199605,-0.151301032571058
228,Grange Hill,51.6134804256286,0.092272529661441
229,Grange Park,51.642623077247706,-0.0973144238034144
230,Gravel Hill,51.3545432553855,-0.0431216987549667
231,Great Portland Street,51.5237887958946,-0.14396142528077602
232,Green Park,51.506760484493896,-0.14247757559748198
233,Greenford,51.541980070868995,-0.34587874010203995
234,Greenwich,51.477547664237605,-0.0148630836142616
235,Grove Park,51.4304326436942,0.0225985021581947
236,Gunnersbury,51.4918634114529,-0.27516413582292604
237,Hackbridge,51.377860899564396,-0.153879198222095
238,Hackney Central,51.5472574449828,-0.0555895119781322
239,Hackney Downs,51.549078085173996,-0.0601851050631527
240,Hackney Wick,51.543558406496,-0.0252595028052464
241,Hadley Wood,51.66840287108211,-0.176581189644067
242,Haggerston,51.538684730179206,-0.0755952580882811
243,Hainault,51.6028453270268,0.0941085503026948
244,Hammersmith (District),51.49181977607929,-0.222860928771942
245,Hammersmith (Met.),51.4934833521202,-0.224640157433783
246,Hampstead,51.5565425953294,-0.17801455994679802
247,Hampstead Heath,51.5551999245613,-0.164566183247471
248,Hampton,51.4158795524432,-0.372135253741401
249,Hampton Court,51.4022938774361,-0.34275715215215
250,Hampton Wick,51.41464004231871,-0.313103609659083
251,Hanger Lane,51.5300720336304,-0.29299614555526504
252,Hanwell,51.5121859578482,-0.338051884444727
253,Harlesden,51.5362583277376,-0.257495674234359
254,Harold Wood,51.5932022178275,0.23420407342479102
255,Harringay,51.5773579093944,-0.10520825255084801
256,Harringay Green Lanes,51.5771458929243,-0.0982173917761519
257,Harrington Road,51.3997905718013,-0.0606999545568372
258,Harrow and Wealdstone,51.592594632669496,-0.33425268508328304
259,Harrow-on-the-Hill,51.5793881186851,-0.33700151732302597
260,Hatch End,51.6098285039178,-0.369178780976322
261,Hatton Cross,51.466685304207,-0.42338056342404795
262,Haydons Road,51.42545731820599,-0.18892935935140398
263,Hayes,51.37573670682939,0.0101426524637168
264,Hayes and Harlington,51.5030490745061,-0.420641903606725
265,Headstone Lane,51.6024996261806,-0.356907514381109
266,Heathrow Terminal 4,51.4597804296919,-0.447729589959589
267,Heathrow Terminal 5,51.470025425890505,-0.490647503171403
268,Heathrow Terminals 1 2 3,51.471289400668795,-0.452407225588878
269,Hendon,51.5800749832165,-0.23863052060312398
270,Hendon Central,51.583133046747704,-0.226734140088258
271,Herne Hill,51.453991369728605,-0.102562908313382
272,Heron Quays,51.503386568845904,-0.0219535320624432
273,High Barnet,51.6516882533421,-0.194165380168301
274,High Street Kensington,51.5007294453891,-0.19156605762672196
275,Highams Park,51.6083559935251,-0.000135285919517002
276,Highbury and Islington,51.5464955066651,-0.10408213986369699
277,Highgate,51.5776466172769,-0.14693486218376503
278,Hillingdon,51.55377751590571,-0.449897993430179
279,Hither Green,51.452401722174905,-0.000970912324506991
280,Holborn,51.51723573506929,-0.11984050743238
281,Holland Park,51.50714648390579,-0.206557777890637
282,Holloway Road,51.5528161033705,-0.11293569695285
283,Homerton,51.546595446617204,-0.0385123471042932
284,Honor Oak Park,51.450648240761204,-0.0441531211420576
285,Hornchurch,51.5543551095852,0.218926996584347
286,Hornsey,51.5864748515145,-0.111815638121109
287,Hounslow,51.4625048175857,-0.36179625601988596
288,Hounslow Central,51.470925765892105,-0.36595812917284204
289,Hounslow East,51.47370789438,-0.35527532185487004
290,Hounslow West,51.47310571581671,-0.385707628650378
291,Hoxton,51.5313916125251,-0.0755856472034941
292,Hyde Park Corner,51.502584012708205,-0.15247411397848998
293,Ickenham,51.5608250533895,-0.4415795126425979
294,Ilford,51.55914224152411,0.0686851908980356
295,Imperial Wharf,51.4749389270134,-0.182837504741453
296,Island Gardens,51.48795008812039,-0.0104933031356475
297,Isleworth,51.475037423644,-0.33732876508971604
298,Kenley,51.3246003124125,-0.10121971276229902
299,Kennington,51.488662458334105,-0.10507061341036901
300,Kensal Green,51.53052421415789,-0.224713384073025
301,Kensal Rise,51.5342150645901,-0.220820978659314
302,Kensington (Olympia),51.497879699178704,-0.21037924233911398
303,Kent House,51.4127176592102,-0.0458155531797617
304,Kentish Town,51.55000952169021,-0.140471263842415
305,Kentish Town West,51.546547969524404,-0.146756409869457
306,Kenton,51.581496283816904,-0.31521686661349896
307,Kew Bridge,51.4900046159748,-0.288846494745842
308,Kew Gardens,51.4767891362521,-0.285381011417179
309,Kidbrooke,51.46269018793261,0.028300239135906003
310,Kilburn,51.54694443536611,-0.204632719131385
311,Kilburn High Road,51.5372677411075,-0.19111310573360998
312,Kilburn Park,51.535135536904896,-0.193966057123936
313,King George V,51.50200860735471,0.0622062138768401
314,King Henry's Drive,51.3453640975883,-0.0202647574466554
315,King's Cross,51.530798190907895,-0.12275642139720801
316,Kings Cross St. Pancras,51.5303124622023,-0.123872129573615
317,Kingsbury,51.58487651699329,-0.278601608230903
318,Kingston,51.4126417642477,-0.30114104020204996
319,Kingswood,51.294723138992005,-0.211233226116293
320,Knightsbridge,51.5013548976071,-0.16066448611880801
321,Knockholt,51.3457519392544,0.130831038819843
322,Ladbroke Grove,51.5172106734536,-0.210198172458574
323,Ladywell,51.4561921350751,-0.019244401145345
324,Lambeth North,51.499129945865796,-0.11176826118096302
325,Lancaster Gate,51.511890943083706,-0.175429928574922
326,Langdon Park,51.5188839383514,-0.0152137989598117
327,Latimer Road,51.5139580984839,-0.217459666065143
328,Lea Bridge,51.5666362612654,-0.0366831577380684
329,Lebanon Road,51.3751989969703,-0.0849736491745109
330,Lee,51.4494585198825,0.013364692370396999
331,Leicester Square,51.5112911816198,-0.128242147580481
332,Lewisham,51.464880713235395,-0.0124327009058803
333,Leyton,51.5581322702431,-0.00646533158243596
334,Leyton Midland Road,51.569364239337,-0.00806634743339343
335,Leytonstone,51.5685222890996,0.00914045195130117
336,Leytonstone High Road,51.5638073441885,0.00825446883118232
337,Limehouse,51.5123121635383,-0.0393800777495485
338,Liverpool Street,51.5175982643439,-0.0822496222771093
339,Lloyd Park,51.36427553515411,-0.0807462730721692
340,London Bridge,51.5046743475629,-0.0860055981730393
341,London City Airport,51.5036896641552,0.0478727154448085
342,London Fields,51.5407188411011,-0.0576996864103553
343,Loughborough Junction,51.4666788998768,-0.102497341535979
344,Loughton,51.641570477697705,0.0552790791032814
345,Lower Sydenham,51.424846842511606,-0.033330341542937
346,Maida Vale,51.5299950567181,-0.18543264693135394
347,Malden Manor,51.3846095360584,-0.26112041639888195
348,Manor House,51.570747140220206,-0.0956849762588548
349,Manor Park,51.5528543500504,0.045723870060229
350,Mansion House,51.512091750122096,-0.0941976577543322
351,Marble Arch,51.51396549179051,-0.158571216249827
352,Maryland,51.545668271034295,0.00568165418182294
353,Marylebone,51.5223966684401,-0.163492563860306
354,Maze Hill,51.483013656524705,0.00320489681765471
355,Merton Park,51.4133916084448,-0.20134203116671104
356,Mile End,51.5253109704202,-0.0326660843305231
357,Mill Hill Broadway,51.612871127886,-0.249537068494836
358,Mill Hill East,51.60831664462871,-0.20989571287373104
359,Mitcham,51.3974886140722,-0.170871647171924
360,Mitcham Eastfields,51.40838390986529,-0.15400171880056798
361,Mitcham Junction,51.39304256794371,-0.157436643661822
362,Monument,51.510630415901794,-0.0861883136877794
363,Moor Park,51.62993066541039,-0.43291302742675797
364,Moorgate,51.5184371390077,-0.0890176878750945
365,Morden,51.402185961613505,-0.19485198172341897
366,Morden Road,51.408871889006,-0.19280567725151998
367,Morden South,51.396307697574905,-0.200301562051216
368,Mornington Crescent,51.5343622173569,-0.138744349838543
369,Mortlake,51.46816793609101,-0.267203313914429
370,Motspur Park,51.395319626608895,-0.239439745975172
371,Mottingham,51.439824976607,0.0503242021767052
372,Mudchute,51.491236185337705,-0.0149599448927628
373,Neasden,51.554627717006504,-0.250115045332305
374,New Addington,51.3425905089639,-0.0173833270853994
375,New Barnet,51.64853676980061,-0.17296971401988095
376,New Beckenham,51.416705548656,-0.0353049493204362
377,New Cross,51.4764294151816,-0.0322788115029916
378,New Cross Gate,51.4752649281612,-0.0395290519360524
379,New Eltham,51.437690660187705,0.0704446183922663
380,New Malden,51.4035559067229,-0.256218106160674
381,New Southgate,51.614093666574895,-0.143009776041921
382,Newbury Park,51.5756383559361,0.090303157711892
383,Norbiton,51.4119093510218,-0.284199947894883
384,Norbury,51.41118850287211,-0.12279940184469999
385,North Acton,51.5234324274314,-0.259729527847009
386,North Dulwich,51.4544818086691,-0.0879186807179378
387,North Ealing,51.5176222888529,-0.288993552615282
388,North Greenwich,51.5002551525582,0.00358625912485761
389,North Harrow,51.584631298927405,-0.3626329932634129
390,North Sheen,51.4654196112512,-0.286397466744351
391,North Wembley,51.56239629153811,-0.30394821929308
392,Northfields,51.500491670459795,-0.31506481877021597
393,Northolt,51.548212900955,-0.368440595510011
394,Northolt Park,51.5576190512839,-0.35943419638260105
395,Northumberland Park,51.6020157330995,-0.0541320256381381
396,Northwick Park,51.57850868801479,-0.31819939191086705
397,Northwood,51.611213610715,-0.423837786672373
398,Northwood Hills,51.600802645329296,-0.409311357826304
399,Norwood Junction,51.3969543221338,-0.0752098565302298
400,Notting Hill Gate,51.50937533634539,-0.19592161845508502
401,Nunhead,51.4665799841859,-0.0536797426440658
402,Oakleigh Park,51.6376763630458,-0.16619496659508598
403,Oakwood,51.6476379604749,-0.131853539818674
404,Ockendon,51.5219896452329,0.29048347505578903
405,Old Street,51.525581471626,-0.0876229578285339
406,Orpington,51.3735200472526,0.0890289014663727
407,Osterley,51.4812168100862,-0.35209609607353903
408,Oval,51.4814126004267,-0.11332107586241001
409,Oxford Circus,51.5152234024753,-0.140836171281216
410,Paddington,51.5153937854761,-0.17573675205718
411,Palmers Green,51.6187867479936,-0.11027250002440801
412,Park Royal,51.5268340201739,-0.28492891769302303
413,Parsons Green,51.474960152611295,-0.20112449236141197
414,Peckham Rye,51.46951136473821,-0.0699835531862991
415,Penge East,51.4199753489725,-0.0544952648066812
416,Penge West,51.4180629281155,-0.0606457645522225
417,Perivale,51.536341821196096,-0.32307042198110697
418,Petts Wood,51.3885989909001,0.074480029768347
419,Phipps Bridge,51.4033767278033,-0.18229678887655199
420,Piccadilly Circus,51.5096967485824,-0.133711597193113
421,Pimlico,51.4895528621095,-0.13310825841606
422,Pinner,51.5923616780875,-0.38122379020978003
423,Plaistow,51.53128833503511,0.0177806419767876
424,Plumstead,51.4897924244717,0.0842996165468695
425,Ponders End,51.64273069128,-0.0345251045263664
426,Pontoon Dock,51.5022162156561,0.0333257074807419
427,Poplar,51.507588070486,-0.0172754933083506
428,Preston Road,51.572103728155795,-0.294972012548964
429,Prince Regent,51.509434549718,0.0334885740458409
430,Pudding Mill Lane,51.534327854309,-0.0127685119528796
431,Purfleet,51.4811730060298,0.23677483579254102
432,Purley,51.337363554122604,-0.113613517836059
433,Purley Oaks,51.3469893399568,-0.0988153330628922
434,Putney,51.46095253051271,-0.216603373518713
435,Putney Bridge,51.4678653375334,-0.20936541684838395
436,Queens Park,51.534312650570094,-0.20479814938675697
437,Queens Road Peckham,51.4742847092653,-0.057354978856183
438,Queensbury,51.5938829754361,-0.286331597393279
439,Queenstown Road,51.474959127149496,-0.147355312102418
440,Queensway,51.510449232949895,-0.18741990308706696
441,Rainham,51.5173405152786,0.19069197549114
442,Ravensbourne,51.4138703786316,-0.00693781553200695
443,Ravenscourt Park,51.4940679805396,-0.235969233097656
444,Rayners Lane,51.5753967323171,-0.3710608137742671
445,Raynes Park,51.4093753455167,-0.22991293934755702
446,Rectory Road,51.558763476696605,-0.0683856647215925
447,Redbridge,51.5763669173707,0.0453940439621216
448,Reedham,51.3314417130642,-0.12340262441461
449,Reeves Corner,51.3752772004597,-0.10637977823085001
450,Regents Park,51.523810673214996,-0.145344410943574
451,Richmond,51.4632328858425,-0.30173913400666696
452,Rickmansworth,51.6403230144667,-0.473684584103803
453,Riddlesdown,51.3326748309249,-0.0994936674782967
454,Roding Valley,51.61695644608461,0.0440262070089692
455,Romford,51.5746415918762,0.183055272296591
456,Rotherhithe,51.501594504831196,-0.0529662964141603
457,Royal Albert,51.5084938696371,0.0451771450658638
458,Royal Oak,51.5182943526052,-0.188823673616337
459,Royal Victoria,51.50905523506479,0.017965412568385
460,Ruislip,51.5721619209745,-0.421234925940202
461,Ruislip Gardens,51.559960178137295,-0.40929411114266095
462,Ruislip Manor,51.573451574510095,-0.412849354371243
463,Russell Square,51.523013038091094,-0.12459019776958
464,Sanderstead,51.3482462536541,-0.09370850005418402
465,Sandilands,51.37502227214971,-0.0780265897730704
466,Selhurst,51.392185769913596,-0.0898990370877537
467,Seven Kings,51.5639933517618,0.0963195747390778
468,Seven Sisters,51.58336215999121,-0.0724668228194505
469,Shadwell,51.5113001552667,-0.0569192071261326
470,Shenfield,51.6308730972021,0.32995226436017605
471,Shepherds Bush,51.504532150984105,-0.218519159443698
472,Shepherds Bush Market,51.505880708107206,-0.227400493416075
473,Shoreditch High Street,51.5234668189696,-0.0770874246719852
474,Shortlands,51.40560236679521,0.00276754438906633
475,Sidcup,51.434398457571,0.103315359084748
476,Silver Street,51.6152424779722,-0.0725897415602479
477,Slade Green,51.467747655153104,0.190518387554055
478,Sloane Square,51.4923597642465,-0.156488857475889
479,Snaresbrook,51.5808912737665,0.0214639277817424
480,South Acton,51.4996858283591,-0.270215207515349
481,South Bermondsey,51.487676615354005,-0.0547548212374044
482,South Croydon,51.362750197983395,-0.0925173632865502
483,South Ealing,51.501644020742795,-0.30704024495136606
484,South Greenford,51.5340275571579,-0.33673748201007797
485,South Hampstead,51.5414768475966,-0.17837119996038697
486,South Harrow,51.564680168418896,-0.351893970947759
487,South Kensington,51.494071365584205,-0.17392302309209898
488,South Kenton,51.5710444494788,-0.30814297729179496
489,South Merton,51.4032405551849,-0.20555030134116398
490,South Quay,51.5008636064987,-0.0184606926832228
491,South Ruislip,51.5568903024427,-0.399115910294711
492,South Tottenham,51.580402586226796,-0.0718559566013612
493,South Wimbledon,51.4153607099116,-0.19197454623853302
494,South Woodford,51.591552616345396,0.027943078326038998
495,Southall,51.5059569116018,-0.378711189802266
496,Southbury,51.6484337253443,-0.0529833105595679
497,Southfields,51.444883313434495,-0.20660938557051503
498,Southgate,51.63237584819041,-0.127770047251446
499,Southwark,51.5038536204048,-0.105794939570331
500,St Helier,51.3899121636438,-0.19901459195506302
501,St James Street,51.580608664081296,-0.0328045617393515
502,St Johns,51.4689752947396,-0.0232406618355604
503,St Margarets,51.4552059913457,-0.321324247881547
504,St Mary Cray,51.3947594079163,0.107217899555122
505,St Pancras,51.53055440168139,-0.12550578197006002
506,St. James's Park,51.49960979443029,-0.133878755377767
507,St. Johns Wood,51.5348544108574,-0.17406484041938902
508,St. Pauls,51.51483529593371,-0.0975710006650858
509,Stamford Brook,51.494449967762606,-0.245246309525915
510,Stamford Hill,51.5744476037189,-0.0766683419097026
511,Stanmore,51.6196734439499,-0.303099292944956
512,Star Lane,51.5206042511229,0.00419100262681453
513,Stepney Green,51.5219958335811,-0.0473825233217984
514,Stockwell,51.4721592557897,-0.122846304228405
515,Stoke Newington,51.5646376099448,-0.0723353946781513
516,Stonebridge Park,51.5439865540715,-0.27540044151891496
517,Stoneleigh,51.3633640523036,-0.24870965707129
518,Stratford,51.54169257936171,-0.00375164102765845
519,Stratford High Street,51.538148951559,-0.0010803560037602699
520,Stratford International,51.54480853480829,-0.008778434016595671
521,Strawberry Hill,51.439747832120894,-0.339617731106479
522,Streatham,51.42584586267,-0.132325496748753
523,Streatham Common,51.418984670787296,-0.135726165100961
524,Streatham Hill,51.4384603654093,-0.127681481482866
525,Sudbury and Harrow Road,51.554493783405505,-0.315926241750592
526,Sudbury Hill,51.5573395592764,-0.336392115131209
527,Sudbury Hill Harrow,51.5583422723845,-0.335446693118045
528,Sudbury Town,51.551397442548506,-0.316343485736328
529,Sundridge Park,51.4133937992276,0.0203651090029858
530,Surbiton,51.3925995331194,-0.30438455983035306
531,Surrey Quays,51.4932668568496,-0.0475299876540577
532,Sutton,51.359506135223505,-0.19130201116946
533,Sutton Common,51.375554694893395,-0.19691991238579803
534,Swiss Cottage,51.5430348466642,-0.17562660443027803
535,Sydenham,51.42734125177,-0.0550886709366784
536,Sydenham Hill,51.4325758875121,-0.0802302078783204
537,Syon Lane,51.481474687780704,-0.326495034576377
538,Tadworth,51.291627864118794,-0.23600801588635797
539,Tattenham Corner,51.3091813104276,-0.242566272809415
540,Teddington,51.4244974970743,-0.332705337018505
541,Temple,51.5110406072706,-0.113725750277665
542,Thames Ditton,51.38861607207439,-0.338292837634167
543,Theobalds Grove,51.69237258898521,-0.0347481344111863
544,Therapia Lane,51.385685790778204,-0.129017106854559
545,Theydon Bois,51.6725520831721,0.10289073625208199
546,Thornton Heath,51.3984810780709,-0.100433165116845
547,Tolworth,51.376843316034794,-0.2796201149932
548,Tooting,51.41989663254461,-0.161002472127555
549,Tooting Bec,51.435838064106704,-0.159700492309773
550,Tooting Broadway,51.4270491448249,-0.16868452742757
551,Tottenham Court Road,51.51621087007461,-0.131110438934185
552,Tottenham Hale,51.587997778177204,-0.0601878226919314
553,Totteridge and Whetstone,51.6302467196558,-0.179354263099613
554,Tower Gateway,51.5103926423114,-0.0744098772286296
555,Tower Hill,51.5103942732372,-0.0767011984581268
556,Tufnell Park,51.556440797934705,-0.137742175150487
557,Tulse Hill,51.439797427529896,-0.10512250909584099
558,Turkey Street,51.672653660962,-0.0472299313571245
559,Turnham Green,51.495181941248596,-0.25452456805284
560,Turnpike Lane,51.59035813391561,-0.102805041186646
561,Twickenham,51.4502509473096,-0.328860226374421
562,Upminster,51.5587633566288,0.251400801076897
563,Upminster Bridge,51.5577188010339,0.23454188868617798
564,Upney,51.538405647702,0.10153174405096499
565,Upper Holloway,51.563623304644004,-0.129109363657748
566,Upper Warlingham,51.30877225465571,-0.0774816619121048
567,Upton Park,51.5366282006416,0.0345418396504738
568,Uxbridge,51.5464545066041,-0.477101559701882
569,Vauxhall,51.485735801715705,-0.123829952856406
570,Victoria,51.4964239527317,-0.143920706325316
571,Waddon,51.3673792570589,-0.117394076608697
572,Waddon Marsh,51.3770829520234,-0.117987464951922
573,Wallington,51.36033154438379,-0.15086383512315
574,Waltham Cross,51.68525725632279,-0.0265642572484255
575,Walthamstow Central,51.5830181133671,-0.0199405450269344
576,Walthamstow Queens Road,51.58154619149511,-0.0238439433319081
577,Wandle Park,51.37340071573279,-0.113253321178582
578,Wandsworth Common,51.4463656043586,-0.16353698096571698
579,Wandsworth Road,51.47022320222361,-0.13903767574710799
580,Wandsworth Town,51.46103407574329,-0.187910037730367
581,Wanstead,51.5749021498173,0.0287604723850641
582,Wanstead Park,51.5517780784731,0.0263899430085046
583,Wapping,51.5043403163738,-0.0558608145326272
584,Warren Street,51.5245799886272,-0.138278331644798
585,Warwick Avenue,51.523104435131906,-0.18295329305572
586,Waterloo,51.5031466396974,-0.113259251998453
587,Waterloo East,51.5041686097651,-0.10915363758111
588,Watford,51.6576050960735,-0.41727000688367893
589,Watford High Street,51.652653704545,-0.391696729322962
590,Watford Junction,51.6638830132479,-0.396171957174806
591,Wellesley Road,51.3753675385357,-0.0975249086343253
592,Welling,51.46477708819899,0.10177503847313302
593,Wembley Central,51.55186478030271,-0.296392327030991
594,Wembley Park,51.5633224581255,-0.27924255264977305
595,Wembley Stadium,51.5546545705647,-0.28604644673579405
596,West Acton,51.517770150265896,-0.28065717548937
597,West Brompton,51.4873289147265,-0.19553881189039604
598,West Croydon,51.3785521741293,-0.102034292902506
599,West Drayton,51.510071218536,-0.47217609685820505
600,West Dulwich,51.440911821297206,-0.09067267639260498
601,West Ealing,51.513625205209706,-0.319782954648735
602,West Finchley,51.6092627277839,-0.188917109550708
603,West Ham,51.528525519359896,0.00531739383062769
604,West Hampstead,51.54747433305079,-0.19112658556357198
605,West Hampstead Thameslink,51.54862912261479,-0.192537519702221
606,West Harrow,51.57892423798761,-0.35384669716506706
607,West India Quay,51.50676265766771,-0.0205824471509307
608,West Kensington,51.490109362443704,-0.20620369468782102
609,West Norwood,51.431241115649996,-0.10318913491266199
610,West Ruislip,51.569587871370295,-0.43786014555668706
611,West Silvertown,51.502884434803,0.0222460466499381
612,West Sutton,51.366150135202204,-0.204644548460784
613,West Wickham,51.3812842012659,-0.0145763304220232
614,Westbourne Park,51.52098884133861,-0.20088251515821104
615,Westcombe Park,51.4845088959986,0.0177457002429358
616,Westferry,51.5096381479109,-0.0263231371398518
617,Westminster,51.501401591350096,-0.125002079249726
618,White City,51.512232437641494,-0.22463193144813
619,White Hart Lane,51.605034770871804,-0.070870326822947
620,Whitechapel,51.5195877855755,-0.0594204851891818
621,Whitton,51.4495881907174,-0.35768206087209997
622,Whyteleafe,51.3099293183463,-0.0811351653827466
623,Whyteleafe South,51.303489803442105,-0.076712514743058
624,Willesden Green,51.5493732864318,-0.22240760412448
625,Willesden Junction,51.5322339634936,-0.24390914329748298
626,Wimbledon,51.4211078449718,-0.206662835920936
627,Wimbledon Chase,51.4095309322704,-0.214089769747315
628,Wimbledon Park,51.43458095262871,-0.199186275276999
629,Winchmore Hill,51.6338868591581,-0.10091693331638399
630,Wood Green,51.597453728312104,-0.109526589468032
631,Wood Lane,51.5096581948003,-0.22447260863862303
632,Wood Street,51.5866699440063,-0.0019538980132223
633,Woodford,51.6072018443785,0.0340562023454831
634,Woodgrange Park,51.5490525352504,0.0445724961062516
635,Woodmansterne,51.319018579426796,-0.15426212854066298
636,Woodside,51.387097683133895,-0.0653471780994997
637,Woodside Park,51.61786839986421,-0.185425504725524
638,Woolwich Arsenal,51.489907116548004,0.0691939064074983
639,Woolwich Dockyard,51.491107794794594,0.0546123483136155
640,Worcester Park,51.3811044872894,-0.245575291815635
